$GPGGA,163533.00,2455.4114,N,07702.5978,W,1,8,1.1,16.1,M,-30.4,M,,*5C
$GPGLL,2455.4114,N,07702.5978,W,163533.00,A*10
$GPRMC,163533.00,A,2455.4114,N,07702.5978,W,4.8,112.3,160426,9.2,W*5F
$IIVTG,112.25,T,121.42,M,4.79,N,8.87,K,A*38
$IIVHW,80.9,T,90.1,M,4.79,N,8.87,K*51
$IIHDM,90.1,M*1A
$IIHDT,80.9,T*13
$IIHDG,92.00,,,9.17,W*04
$IIHDM,92.0,M*19
$IIHDT,82.8,T*10
$IIMWD,270.00,T,279.17,M,8.00,N,4.12,M*44
$IIZDA,163533.00,16,04,2026,,*75
$IIROT,30.00,A*25
$IIVLW,100.00,N,22.86,N*72
$IIXDR,A,1.8,D,PTCH,A,-0.5,D,ROLL*7D
$IIDBT,11.3,f,3.44,M,1.9,F*19
$IIDPT,3.44,1.250*75
$IIDPT,3.44,-0.850*53
$IIDBS,15.4,f,4.69,M,2.6,F*19
$IIDBK,11.3,f,3.44,M,1.9,F*06
$IIMMB,30.0098,I,1.0163,B*7E
$IIXDR,P,1.0163,B,Barometer*12
$IIMTA,27.00,C*30
$IIXDR,C,27.00,C,TempAir*13
$IIMTW,26.7,C*10
$IIMWV,325.00,R,5.66,M,A*3F
$IIVWR,35.00,L,11.00,N,5.66,M,20.37,K*62
$IIMWV,315.00,T,4.12,M,A*38
$IIVWT,45.00,L,8.00,N,4.12,M,14.81,K*53
$IIRSA,2.00,A,,*1D
$IIVPW,3.60,N,1.85,M*5B
$PNKEP,01,5.00,N,9.26,K*60
$PSILCD1,5.00,40.00*01
$PNKEP,03,40.00,85.00,92.00*6F
$PNKEP,02,220.00*5C
$PSILTBS,4.50,N*12
$IIAPB,A,A,0.025,L,N,V,V,300,T,NASSAU,300,T,300,T*04
$IIXTE,A,A,0.025,L,N*4E
$IIRMB,A,0.025,L,NASSAU,START,2504.6500,N,07720.3100,W,18.53,300,-4.75,,A*6D
$IIXTE,A,A,0.013,R,N*55
$GPGGA,163533.00,2455.4114,N,07702.5978,W,1,8,1.1,16.1,M,-30.4,M,,*5C
$GPGLL,2455.4114,N,07702.5978,W,163533.00,A*10
$GPRMC,163533.00,A,2455.4114,N,07702.5978,W,4.8,112.3,160426,9.2,W*5F
$IIVTG,112.25,T,121.42,M,4.79,N,8.87,K,A*38
$IIVHW,80.9,T,90.1,M,4.79,N,8.87,K*51
$IIHDM,90.1,M*1A
$IIHDT,80.9,T*13
$IIHDG,92.00,,,9.17,W*04
$IIHDM,92.0,M*19
$IIHDT,82.8,T*10
$IIMWD,270.00,T,279.17,M,8.00,N,4.12,M*44
$IIZDA,163533.00,16,04,2026,,*75
$IIROT,30.00,A*25
$IIVLW,100.00,N,22.86,N*72
$IIXDR,A,1.8,D,PTCH,A,-0.5,D,ROLL*7D
$IIDBT,11.3,f,3.44,M,1.9,F*19
$IIDPT,3.44,1.250*75
$IIDPT,3.44,-0.850*53
$IIDBS,15.4,f,4.69,M,2.6,F*19
$IIDBK,11.3,f,3.44,M,1.9,F*06
$IIMMB,30.0098,I,1.0163,B*7E
$IIXDR,P,1.0163,B,Barometer*12
$IIMTA,27.00,C*30
$IIXDR,C,27.00,C,TempAir*13
$IIMTW,26.7,C*10
$IIMWV,325.00,R,5.66,M,A*3F
$IIVWR,35.00,L,11.00,N,5.66,M,20.37,K*62
$IIMWV,315.00,T,4.12,M,A*38
$IIVWT,45.00,L,8.00,N,4.12,M,14.81,K*53
$IIRSA,2.00,A,,*1D
$IIVPW,3.60,N,1.85,M*5B
$PNKEP,01,5.00,N,9.26,K*60
$PSILCD1,5.00,40.00*01
$PNKEP,03,40.00,85.00,92.00*6F
$PNKEP,02,220.00*5C
$PSILTBS,4.50,N*12
$IIAPB,A,A,0.025,L,N,V,V,200,T,NASSAU,204,T,204,T*05
$IIXTE,A,A,0.025,L,N*4E
$IIRMB,A,0.025,L,NASSAU,START,2504.6500,N,07720.3100,W,2.51,204,5.20,,A*7D
$IIXTE,A,A,0.013,R,N*55
$GPGGA,163533.00,2455.4114,N,07702.5978,W,1,8,1.1,16.1,M,-30.4,M,,*5C
$GPGLL,2455.4114,N,07702.5978,W,163533.00,A*10
$GPRMC,163533.00,A,2455.4114,N,07702.5978,W,4.8,112.3,160426,9.2,W*5F
$IIVTG,112.25,T,121.42,M,4.79,N,8.87,K,A*38
$IIVHW,80.9,T,90.1,M,4.79,N,8.87,K*51
$IIHDM,90.1,M*1A
$IIHDT,80.9,T*13
$IIHDG,92.00,,,9.17,W*04
$IIHDM,92.0,M*19
$IIHDT,82.8,T*10
$IIMWD,270.00,T,279.17,M,8.00,N,4.12,M*44
$IIZDA,163533.00,16,04,2026,,*75
$IIROT,30.00,A*25
$IIVLW,100.00,N,22.86,N*72
$IIXDR,A,1.8,D,PTCH,A,-0.5,D,ROLL*7D
$IIDBT,11.3,f,3.44,M,1.9,F*19
$IIDPT,3.44,1.250*75
$IIDPT,3.44,-0.850*53
$IIDBS,15.4,f,4.69,M,2.6,F*19
$IIDBK,11.3,f,3.44,M,1.9,F*06
$IIMMB,30.0098,I,1.0163,B*7E
$IIXDR,P,1.0163,B,Barometer*12
$IIMTA,27.00,C*30
$IIXDR,C,27.00,C,TempAir*13
$IIMTW,26.7,C*10
$IIMWV,325.00,R,5.66,M,A*3F
$IIVWR,35.00,L,11.00,N,5.66,M,20.37,K*62
$IIMWV,315.00,T,4.12,M,A*38
$IIVWT,45.00,L,8.00,N,4.12,M,14.81,K*53
$IIRSA,2.00,A,,*1D
$IIVPW,3.60,N,1.85,M*5B
$PNKEP,01,5.00,N,9.26,K*60
$PSILCD1,5.00,40.00*01
$PNKEP,03,40.00,85.00,92.00*6F
$PNKEP,02,220.00*5C
$PSILTBS,4.50,N*12
$IIAPB,A,A,0.025,L,N,V,V,200,T,NASSAU,204,T,204,T*05
$IIXTE,A,A,0.025,L,N*4E
$IIRMB,A,0.025,L,NASSAU,START,2504.6500,N,07720.3100,W,2.51,204,5.20,,A*7D
$IIXTE,A,A,0.013,R,N*55
$IIAPB,A,A,0.025,L,N,V,V,300,T,NASSAU,204,T,204,T*04
$IIRMB,A,0.019,L,NASSAU,START,2504.6500,N,07720.3100,W,2.51,204,5.20,,A*72
$IIXTE,A,A,0.019,L,N*41
$GPGGA,163533.00,2455.4114,N,07702.5978,W,1,8,1.1,16.1,M,-30.4,M,,*5C
$GPGLL,2455.4114,N,07702.5978,W,163533.00,A*10
$GPRMC,163533.00,A,2455.4114,N,07702.5978,W,4.8,112.3,160426,9.2,W*5F
$IIVTG,112.25,T,121.42,M,4.79,N,8.87,K,A*38
$IIVHW,80.9,T,90.1,M,4.79,N,8.87,K*51
$IIHDM,90.1,M*1A
$IIHDT,80.9,T*13
$IIHDG,92.00,,,9.17,W*04
$IIHDM,92.0,M*19
$IIHDT,82.8,T*10
$IIMWD,270.00,T,279.17,M,8.00,N,4.12,M*44
$IIZDA,163533.00,16,04,2026,,*75
$IIROT,30.00,A*25
$IIVLW,100.00,N,22.86,N*72
$IIXDR,A,1.8,D,PTCH,A,-0.5,D,ROLL*7D
$IIDBT,11.3,f,3.44,M,1.9,F*19
$IIDPT,3.44,1.250*75
$IIDPT,3.44,-0.850*53
$IIDBS,15.4,f,4.69,M,2.6,F*19
$IIDBK,11.3,f,3.44,M,1.9,F*06
$IIMMB,30.0098,I,1.0163,B*7E
$IIXDR,P,1.0163,B,Barometer*12
$IIMTA,27.00,C*30
$IIXDR,C,27.00,C,TempAir*13
$IIMTW,26.7,C*10
$IIMWV,325.00,R,5.66,M,A*3F
$IIVWR,35.00,L,11.00,N,5.66,M,20.37,K*62
$IIMWV,315.00,T,4.12,M,A*38
$IIVWT,45.00,L,8.00,N,4.12,M,14.81,K*53
$IIRSA,2.00,A,,*1D
$IIVPW,3.60,N,1.85,M*5B
$PNKEP,01,5.00,N,9.26,K*60
$PSILCD1,5.00,40.00*01
$PNKEP,03,40.00,85.00,92.00*6F
$PNKEP,02,220.00*5C
$PSILTBS,4.50,N*12
$IIAPB,A,A,0.025,L,N,V,V,300,T,NASSAU,300,T,300,T*04
$IIXTE,A,A,0.025,L,N*4E
$IIRMB,A,0.025,L,NASSAU,START,2504.6500,N,07720.3100,W,18.53,300,-4.75,,A*6D
$IIXTE,A,A,0.013,R,N*55
$GPGGA,163533.00,2455.4114,N,07702.5978,W,1,8,1.1,16.1,M,-30.4,M,,*5C
$GPGLL,2455.4114,N,07702.5978,W,163533.00,A*10
$GPRMC,163533.00,A,2455.4114,N,07702.5978,W,4.8,112.3,160426,9.2,W*5F
$IIVTG,112.25,T,121.42,M,4.79,N,8.87,K,A*38
$IIVHW,80.9,T,90.1,M,4.79,N,8.87,K*51
$IIHDM,90.1,M*1A
$IIHDT,80.9,T*13
$IIHDG,92.00,,,9.17,W*04
$IIHDM,92.0,M*19
$IIHDT,82.8,T*10
$IIMWD,270.00,T,279.17,M,8.00,N,4.12,M*44
$IIZDA,163533.00,16,04,2026,,*75
$IIROT,30.00,A*25
$IIVLW,100.00,N,22.86,N*72
$IIXDR,A,1.8,D,PTCH,A,-0.5,D,ROLL*7D
$IIDBT,11.3,f,3.44,M,1.9,F*19
$IIDPT,3.44,1.250*75
$IIDPT,3.44,-0.850*53
$IIDBS,15.4,f,4.69,M,2.6,F*19
$IIDBK,11.3,f,3.44,M,1.9,F*06
$IIMMB,30.0098,I,1.0163,B*7E
$IIXDR,P,1.0163,B,Barometer*12
$IIMTA,27.00,C*30
$IIXDR,C,27.00,C,TempAir*13
$IIMTW,26.7,C*10
$IIMWV,325.00,R,5.66,M,A*3F
$IIVWR,35.00,L,11.00,N,5.66,M,20.37,K*62
$IIMWV,315.00,T,4.12,M,A*38
$IIVWT,45.00,L,8.00,N,4.12,M,14.81,K*53
$IIRSA,2.00,A,,*1D
$IIVPW,3.60,N,1.85,M*5B
$PNKEP,01,5.00,N,9.26,K*60
$PSILCD1,5.00,40.00*01
$PNKEP,03,40.00,85.00,92.00*6F
$PNKEP,02,220.00*5C
$PSILTBS,4.50,N*12
$IIAPB,A,A,0.025,L,N,V,V,200,T,NASSAU,204,T,204,T*05
$IIXTE,A,A,0.025,L,N*4E
$IIRMB,A,0.025,L,NASSAU,START,2504.6500,N,07720.3100,W,2.51,204,5.20,,A*7D
$IIXTE,A,A,0.013,R,N*55
$IIAPB,A,A,0.025,L,N,V,V,300,T,NASSAU,204,T,204,T*04
$IIRMB,A,0.019,L,NASSAU,START,2504.6500,N,07720.3100,W,2.51,204,5.20,,A*72
$IIXTE,A,A,0.019,L,N*41
